{
"type": "FeatureCollection",
"name": "Hospital_CV",
"crs": { "type": "name", "properties": { "name": "urn:ogc:def:crs:OGC:1.3:CRS84" } },
"features": [
{ "type": "Feature", "properties": { "id": "here:pds:place:4849gct4-9adeb72c3d3e3c3314894ec08d0c98ed", "title": "Alcoholicos Anonimos A.C.", "label": "Alcoholicos Anonimos A.C., Adolfo López Mateos, Los Silleros, 79010 Ciudad Valles, SLP, México", "distance": 310.0, "categories": "800-8000-0158" }, "geometry": { "type": "Point", "coordinates": [ -99.02787, 22.01621 ] } },
{ "type": "Feature", "properties": { "id": "here:pds:place:4849gct4-f5e38f7223c1a95a781ea861e2c844e3", "title": "Veterinaria Lazarita", "label": "Veterinaria Lazarita, Pedregal 798, La Crucita, 79254 Ciudad Valles, SLP, México", "distance": 1652.0, "categories": "800-8000-0162" }, "geometry": { "type": "Point", "coordinates": [ -99.0121, 22.01331 ] } },
{ "type": "Feature", "properties": { "id": "here:pds:place:4849gct4-196ce1ad1306a7899f3ff68c33339cf0", "title": "Alcoholicos Anonimos Solo por Hoy", "label": "Alcoholicos Anonimos Solo por Hoy, Jazmín, Loma Bonita, 79020 Ciudad Valles, SLP, México", "distance": 1817.0, "categories": "800-8000-0158" }, "geometry": { "type": "Point", "coordinates": [ -99.02004, 22.00384 ] } },
{ "type": "Feature", "properties": { "id": "here:pds:place:4849gct4-3a64608edc64496584d41bb2ef41350d", "title": "Nutriologa Sadett", "label": "Nutriologa Sadett, Circuito del Tercer Mundo, Valle Alto, 79020 Ciudad Valles, SLP, México", "distance": 2447.0, "categories": "800-8000-0000;700-7400-0292" }, "geometry": { "type": "Point", "coordinates": [ -99.01047, 22.00304 ] } },
{ "type": "Feature", "properties": { "id": "here:pds:place:4849gct4-ee2f0b2a3b1541a28105051826b87fdf", "title": "Dental García", "label": "Dental García, Toltecas, Avance, 79040 Ciudad Valles, SLP, México", "distance": 2766.0, "categories": "800-8000-0154;800-8000-0000" }, "geometry": { "type": "Point", "coordinates": [ -99.01961, 21.99495 ] } },
{ "type": "Feature", "properties": { "id": "here:pds:place:4849gct4-055c7795f44b4c799207e458fd57f69b", "title": "Dr Francisco Javier Campos", "label": "Dr Francisco Javier Campos, Boulevard México Laredo, Fracc Norte Residencial, 79058 Ciudad Valles, SLP, México", "distance": 2843.0, "categories": "800-8000-0156;800-8000-0340" }, "geometry": { "type": "Point", "coordinates": [ -99.0102, 21.99857 ] } },
{ "type": "Feature", "properties": { "id": "here:pds:place:4849gct4-a8a7ea6946aa4a509ec926b6c050d8cb", "title": "Dr Jorge Alberto Márquez", "label": "Dr Jorge Alberto Márquez, Boulevard México Laredo, Fracc Norte Residencial, 79058 Ciudad Valles, SLP, México", "distance": 2850.0, "categories": "800-8000-0000;800-8000-0155" }, "geometry": { "type": "Point", "coordinates": [ -99.01023, 21.99847 ] } },
{ "type": "Feature", "properties": { "id": "here:pds:place:484jx7ps-0b03ddaad865040dc0906bfa2119d0a2", "title": "IMSS Hospital General de Zona No. 6 Cd. Valles-UR", "label": "IMSS Hospital General de Zona No. 6 Cd. Valles-UR, Boulevard México Laredo, Moctezuma, 79040 Ciudad Valles, SLP, México", "distance": 2994.0, "categories": "800-8000-0325" }, "geometry": { "type": "Point", "coordinates": [ -99.01143, 21.99612 ] } },
{ "type": "Feature", "properties": { "id": "here:pds:place:484jx7ps-7833ad1437010fcda8cc5ad7b6517b5a", "title": "IMSS Hospital General de Zona No. 6 Cd. Valles", "label": "IMSS Hospital General de Zona No. 6 Cd. Valles, Boulevard México Laredo, Moctezuma, 79040 Ciudad Valles, SLP, México", "distance": 3024.0, "categories": "800-8000-0159" }, "geometry": { "type": "Point", "coordinates": [ -99.01135, 21.99585 ] } },
{ "type": "Feature", "properties": { "id": "here:pds:place:4849gct4-8edf40769f84479896c0ec37ec962b96", "title": "Centro de Especialidades Odontológicas", "label": "Centro de Especialidades Odontológicas, Vicente C. Salazar 943, Las Lomas, 79043 Ciudad Valles, SLP, México", "distance": 3096.0, "categories": "800-8000-0154" }, "geometry": { "type": "Point", "coordinates": [ -99.01499, 21.99333 ] } },
{ "type": "Feature", "properties": { "id": "here:pds:place:484httek-ff1fca51869109e3abe00b7456310604", "title": "Clínica Salazar", "label": "Clínica Salazar, Morelos 49, Las Lomas, 79043 Ciudad Valles, SLP, México", "distance": 3113.0, "categories": "800-8000-0154;600-6950-0000;700-7200-0272;800-8000-0158" }, "geometry": { "type": "Point", "coordinates": [ -99.01775, 21.99221 ] } },
{ "type": "Feature", "properties": { "id": "here:pds:place:4849gct4-b77d0f058b68b45e6d2ee489595940f2", "title": "Grupo de Alcohólicos Anónimos Grupo Tranquilidad", "label": "Grupo de Alcohólicos Anónimos Grupo Tranquilidad, Avenida Pedro Antonio de los Santos, Fracc Lomas Ote, 79084 Ciudad Valles, SLP, México", "distance": 3298.0, "categories": "800-8000-0158" }, "geometry": { "type": "Point", "coordinates": [ -99.02121, 21.98969 ] } },
{ "type": "Feature", "properties": { "id": "here:pds:place:4849gct4-c6bf3554791f4e71b7b4c9feb4ab156b", "title": "Consultorio de Diagnóstico Digestivo", "label": "Consultorio de Diagnóstico Digestivo, Ignacio Zaragoza, Ciudad Valles Centro, 79000 Ciudad Valles, SLP, México", "distance": 3342.0, "categories": "800-8000-0000;800-8000-0155;800-8000-0158" }, "geometry": { "type": "Point", "coordinates": [ -99.01429, 21.99121 ] } },
{ "type": "Feature", "properties": { "id": "here:pds:place:4849gct4-af88efbdb84f46f680e1efa52fc31be9", "title": "Unidad Medica de la Huasteca", "label": "Unidad Medica de la Huasteca, Manuel José Othón, Alta Vista, 79050 Ciudad Valles, SLP, México", "distance": 3364.0, "categories": "800-8000-0000;800-8000-0155" }, "geometry": { "type": "Point", "coordinates": [ -99.00945, 21.99334 ] } },
{ "type": "Feature", "properties": { "id": "here:pds:place:484d408k-b651f9e76c9e05390c646a38e82f57cb", "title": "Sanatorio San José de Valles", "label": "Sanatorio San José de Valles, Vicente C. Salazar 1415, Alta Vista, 79050 Ciudad Valles, SLP, México", "distance": 3426.0, "categories": "800-8000-0159" }, "geometry": { "type": "Point", "coordinates": [ -99.00934, 21.99275 ] } },
{ "type": "Feature", "properties": { "id": "here:pds:place:4849gct4-0e6d57a965885016de6b039d1b8f8dc2", "title": "Sanatorio San José de Valles-UR", "label": "Sanatorio San José de Valles-UR, Vicente C. Salazar 1415, Alta Vista, 79050 Ciudad Valles, SLP, México", "distance": 3426.0, "categories": "800-8000-0325" }, "geometry": { "type": "Point", "coordinates": [ -99.00934, 21.99275 ] } },
{ "type": "Feature", "properties": { "id": "here:pds:place:4849gct5-2205104341c744bd967c64710b0a6522", "title": "Deposito Dental", "label": "Deposito Dental, Frontera 1210, Alta Vista, 79050 Ciudad Valles, SLP, México", "distance": 3445.0, "categories": "800-8000-0154" }, "geometry": { "type": "Point", "coordinates": [ -99.00774, 21.99353 ] } },
{ "type": "Feature", "properties": { "id": "here:pds:place:4849gct4-af129f84005a49a7b8a76cf0a095329d", "title": "Dr. Jose Luis Ramírez Herrera", "label": "Dr. Jose Luis Ramírez Herrera, Venustiano Carranza, Ciudad Valles Centro, 79000 Ciudad Valles, SLP, México", "distance": 3453.0, "categories": "800-8000-0158;800-8000-0000" }, "geometry": { "type": "Point", "coordinates": [ -99.01418, 21.99017 ] } },
{ "type": "Feature", "properties": { "id": "here:pds:place:4849gct4-778d1a7ea72fb1bbdc807e61ef6d0bc5", "title": "Harmonii Medical Spa", "label": "Harmonii Medical Spa, José María Morelos 208, Ciudad Valles Centro, 79000 Ciudad Valles, SLP, México", "distance": 3607.0, "categories": "800-8000-0155;700-7200-0272;700-7400-0292" }, "geometry": { "type": "Point", "coordinates": [ -99.0183, 21.98744 ] } },
{ "type": "Feature", "properties": { "id": "here:pds:place:4849gct4-f29e64b6b6c34d8e998ab618ff611e85", "title": "Dr. Fernando de Alba Q.", "label": "Dr. Fernando de Alba Q., Venustiano Carranza 31, Ciudad Valles Centro, 79000 Ciudad Valles, SLP, México", "distance": 3609.0, "categories": "800-8000-0000;700-7200-0272;800-8000-0155" }, "geometry": { "type": "Point", "coordinates": [ -99.01468, 21.98848 ] } },
{ "type": "Feature", "properties": { "id": "here:pds:place:4849gct4-a4e6753131a5cb973da5397dfc6e62d6", "title": "Medicina Interna", "label": "Medicina Interna, José María Morelos, Ciudad Valles Centro, 79000 Ciudad Valles, SLP, México", "distance": 3611.0, "categories": "800-8000-0000" }, "geometry": { "type": "Point", "coordinates": [ -99.01831, 21.9874 ] } },
{ "type": "Feature", "properties": { "id": "here:pds:place:4849gct4-d119208565fe4d14aa1f0a1a37bd6bbd", "title": "Odontología Integral Avanzada", "label": "Odontología Integral Avanzada, Manuel José Othón 233, Obrera, 79050 Ciudad Valles, SLP, México", "distance": 3645.0, "categories": "800-8000-0154" }, "geometry": { "type": "Point", "coordinates": [ -99.00981, 21.9902 ] } },
{ "type": "Feature", "properties": { "id": "here:pds:place:4849gct4-77c4a1d07b084e98a4e55a4354fc0054", "title": "Odontopediatra Cd Valles, dra. Joselyn Sosa", "label": "Odontopediatra Cd Valles, dra. Joselyn Sosa, Manuel José Othón 505, Real de Villas II, 79050 Ciudad Valles, SLP, México", "distance": 3648.0, "categories": "800-8000-0154" }, "geometry": { "type": "Point", "coordinates": [ -99.00952, 21.99032 ] } },
{ "type": "Feature", "properties": { "id": "here:pds:place:4849gct4-ec2ab8575ccce6666dc5f10c7358ccaf", "title": "Smile Dental", "label": "Smile Dental, Boulevard México Laredo, Ciudad Valles Centro, 79000 Ciudad Valles, SLP, México", "distance": 3664.0, "categories": "800-8000-0154" }, "geometry": { "type": "Point", "coordinates": [ -99.01225, 21.98887 ] } },
{ "type": "Feature", "properties": { "id": "here:pds:place:4849gct4-15b49196d619737478bc5ed170f986ee", "title": "Masajes Profesionales de Relajación", "label": "Masajes Profesionales de Relajación, Boulevard México Laredo, Ciudad Valles Centro, 79000 Ciudad Valles, SLP, México", "distance": 3664.0, "categories": "800-8000-0158" }, "geometry": { "type": "Point", "coordinates": [ -99.01225, 21.98887 ] } },
{ "type": "Feature", "properties": { "id": "here:pds:place:4849gct5-64c537d7f49c8aeb21761af3a03af44c", "title": "Servicios de Enfermería en Vivienda", "label": "Servicios de Enfermería en Vivienda, 16 de Septiembre 609, Fracc La Pimienta, 79068 Ciudad Valles, SLP, México", "distance": 3691.0, "categories": "800-8000-0157" }, "geometry": { "type": "Point", "coordinates": [ -98.99458, 22.0047 ] } },
{ "type": "Feature", "properties": { "id": "here:pds:place:4849gct4-fc2358a9b24a4090bc69005578f51f76", "title": "Consultorio de Especialidad en Urología", "label": "Consultorio de Especialidad en Urología, Venustiano Carranza 1, Ciudad Valles Centro, 79000 Ciudad Valles, SLP, México", "distance": 3696.0, "categories": "800-8000-0000;800-8000-0158" }, "geometry": { "type": "Point", "coordinates": [ -99.01495, 21.98755 ] } },
{ "type": "Feature", "properties": { "id": "here:pds:place:4849gct4-4a120dda661c4611b3cc96a61261743e", "title": "Herbarios Sonia", "label": "Herbarios Sonia, Venustiano Carranza 75, Ciudad Valles Centro, 79000 Ciudad Valles, SLP, México", "distance": 3699.0, "categories": "800-8000-0000" }, "geometry": { "type": "Point", "coordinates": [ -99.01496, 21.98752 ] } },
{ "type": "Feature", "properties": { "id": "here:pds:place:4849gct4-56bb11b6fb3848c8827ae3b91e174b1a", "title": "Centro Radiológico de Estudios Estomatologicos", "label": "Centro Radiológico de Estudios Estomatologicos, Boulevard México Laredo 32, Obrera, 79050 Ciudad Valles, SLP, México", "distance": 3707.0, "categories": "800-8000-0158;700-7200-0272;800-8000-0000" }, "geometry": { "type": "Point", "coordinates": [ -99.01197, 21.98857 ] } },
{ "type": "Feature", "properties": { "id": "here:pds:place:484d408k-26204f9dda1a0d13449fbc31176e502b", "title": "Mundo Zoo", "label": "Mundo Zoo, Venustiano Carranza 45, Ciudad Valles Centro, 79000 Ciudad Valles, SLP, México", "distance": 3712.0, "categories": "800-8000-0162;700-7400-0293" }, "geometry": { "type": "Point", "coordinates": [ -99.0149, 21.98742 ] } },
{ "type": "Feature", "properties": { "id": "here:pds:place:4849gct4-d050644a6df04b188a03858d7f460e0d", "title": "Proveedora Médico Dental", "label": "Proveedora Médico Dental, Hermenegildo Galeana 34, Ciudad Valles Centro, 79000 Ciudad Valles, SLP, México", "distance": 3732.0, "categories": "800-8000-0154;600-6900-0096" }, "geometry": { "type": "Point", "coordinates": [ -99.0136, 21.98768 ] } },
{ "type": "Feature", "properties": { "id": "here:pds:place:4849gct4-f74b74fa3ba44d15b1f00b32283efe45", "title": "Consultorio de Medicina Especializada", "label": "Consultorio de Medicina Especializada, Manuel José Othón 261, Obrera, 79050 Ciudad Valles, SLP, México", "distance": 3768.0, "categories": "800-8000-0158;800-8000-0000" }, "geometry": { "type": "Point", "coordinates": [ -99.00966, 21.98902 ] } },
{ "type": "Feature", "properties": { "id": "here:pds:place:4841r4ve-b43762874f650a20a2e79b654f183c5b", "title": "Medica Alfa", "label": "Medica Alfa, Manuel José Othón 261, Obrera, 79050 Ciudad Valles, SLP, México", "distance": 3768.0, "categories": "800-8000-0000;800-8000-0158" }, "geometry": { "type": "Point", "coordinates": [ -99.00966, 21.98902 ] } },
{ "type": "Feature", "properties": { "id": "here:pds:place:4849gct4-e872b753e6ac4ae2a6e9fb8f331b356c", "title": "Consultorio Médico", "label": "Consultorio Médico, 5 de Mayo 6B, Hidalgo, 79080 Ciudad Valles, SLP, México", "distance": 3808.0, "categories": "800-8000-0000;800-8000-0155;800-8000-0158" }, "geometry": { "type": "Point", "coordinates": [ -99.0185, 21.98553 ] } },
{ "type": "Feature", "properties": { "id": "here:pds:place:4849gct4-40524e082b4a4f54883601d68fa17176", "title": "Nutriologa", "label": "Nutriologa, Hermenegildo Galeana 29, Ciudad Valles Centro, 79000 Ciudad Valles, SLP, México", "distance": 3824.0, "categories": "800-8000-0000;800-8000-0158" }, "geometry": { "type": "Point", "coordinates": [ -99.01383, 21.98671 ] } },
{ "type": "Feature", "properties": { "id": "here:pds:place:4849gct4-0fc4783987134162bbd8437b309831da", "title": "Especialidades Dentales Biolaser Dra. Eloyna", "label": "Especialidades Dentales Biolaser Dra. Eloyna, Hermenegildo Galeana 46, Ciudad Valles Centro, 79000 Ciudad Valles, SLP, México", "distance": 3866.0, "categories": "800-8000-0154;700-7200-0256" }, "geometry": { "type": "Point", "coordinates": [ -99.01363, 21.98637 ] } },
{ "type": "Feature", "properties": { "id": "here:pds:place:4849gct4-34741aaebfa940018fc1f244a02c8ac2", "title": "Óptica Ideal", "label": "Óptica Ideal, Hermenegildo Galeana 33, Ciudad Valles Centro, 79000 Ciudad Valles, SLP, México", "distance": 3903.0, "categories": "800-8000-0161;600-6800-0093" }, "geometry": { "type": "Point", "coordinates": [ -99.01383, 21.98595 ] } },
{ "type": "Feature", "properties": { "id": "here:pds:place:4849gct4-bff4d8986819425d88533a9cc5deb7b2", "title": "Óptica Gamma", "label": "Óptica Gamma, Miguel Hidalgo 426, Hidalgo, 79080 Ciudad Valles, SLP, México", "distance": 3972.0, "categories": "800-8000-0161" }, "geometry": { "type": "Point", "coordinates": [ -99.0144, 21.9851 ] } },
{ "type": "Feature", "properties": { "id": "here:pds:place:4849gct4-c616ee50751f47ad83c246628afda5b5", "title": "Óptica Profesional", "label": "Óptica Profesional, Mariano Abasolo, Hidalgo, 79080 Ciudad Valles, SLP, México", "distance": 3974.0, "categories": "800-8000-0161" }, "geometry": { "type": "Point", "coordinates": [ -99.01634, 21.98451 ] } },
{ "type": "Feature", "properties": { "id": "here:pds:place:4849gct4-37e59654a7d59486778b59409e904f43", "title": "Óptica Marcela", "label": "Óptica Marcela, Mariano Abasolo, Hidalgo, 79080 Ciudad Valles, SLP, México", "distance": 4022.0, "categories": "800-8000-0161" }, "geometry": { "type": "Point", "coordinates": [ -99.01437, 21.98463 ] } },
{ "type": "Feature", "properties": { "id": "here:pds:place:4846d347-801a28ae1f0fb8912ba00c65c88bee8d", "title": "Gr Consultorio Dental", "label": "Gr Consultorio Dental, Mariano Abasolo 619, Hidalgo, 79080 Ciudad Valles, SLP, México", "distance": 4054.0, "categories": "800-8000-0154" }, "geometry": { "type": "Point", "coordinates": [ -99.01339, 21.98465 ] } },
{ "type": "Feature", "properties": { "id": "here:pds:place:4849gct4-3801378ef29c4f09ba61655ae605b60b", "title": "Dr. Francisco Humberto Ríos Meza", "label": "Dr. Francisco Humberto Ríos Meza, Benito Juárez 800, Obrera, 79050 Ciudad Valles, SLP, México", "distance": 4060.0, "categories": "800-8000-0158;800-8000-0000" }, "geometry": { "type": "Point", "coordinates": [ -99.00973, 21.98604 ] } },
{ "type": "Feature", "properties": { "id": "here:pds:place:4849gct5-8a30a022b6584f708fb5307e8016be41", "title": "Oned Ideal Dental Valles He", "label": "Oned Ideal Dental Valles He, Mariano Abasolo 633, Hidalgo, 79080 Ciudad Valles, SLP, México", "distance": 4083.0, "categories": "800-8000-0154" }, "geometry": { "type": "Point", "coordinates": [ -99.01285, 21.98456 ] } },
{ "type": "Feature", "properties": { "id": "here:pds:place:4849gct4-3476876594c2c8acb79d3b85ec05fdf5", "title": "Dental Life Consultorio", "label": "Dental Life Consultorio, Manuel José Othón, Obrera, 79050 Ciudad Valles, SLP, México", "distance": 4097.0, "categories": "800-8000-0154" }, "geometry": { "type": "Point", "coordinates": [ -99.00995, 21.98557 ] } },
{ "type": "Feature", "properties": { "id": "here:pds:place:4849gct4-e2f6fd462f6843eab2362b13427baee5", "title": "Dr David Olvera Castillo", "label": "Dr David Olvera Castillo, Negrete 509, Hidalgo, 79080 Ciudad Valles, SLP, México", "distance": 4103.0, "categories": "800-8000-0000;800-8000-0158" }, "geometry": { "type": "Point", "coordinates": [ -99.01463, 21.98379 ] } },
{ "type": "Feature", "properties": { "id": "here:pds:place:4849gct4-7018657ad641402197208b7d9ae7b673", "title": "Consultorio de Medicina General", "label": "Consultorio de Medicina General, Tamaulipas 15, Obrera, 79050 Ciudad Valles, SLP, México", "distance": 4114.0, "categories": "800-8000-0000" }, "geometry": { "type": "Point", "coordinates": [ -99.0106, 21.98512 ] } },
{ "type": "Feature", "properties": { "id": "here:pds:place:4849gct4-120580878a894a09803be1ac28624d3e", "title": "Dental Potosina", "label": "Dental Potosina, Negrete 518, Hidalgo, 79080 Ciudad Valles, SLP, México", "distance": 4118.0, "categories": "800-8000-0154" }, "geometry": { "type": "Point", "coordinates": [ -99.01446, 21.9837 ] } },
{ "type": "Feature", "properties": { "id": "here:pds:place:4849gct5-e4d7d53e2cd117b1e6252a852958343b", "title": "Consultorio Ginecología y Obstetricia", "label": "Consultorio Ginecología y Obstetricia, Benito Juárez, Obrera, 79050 Ciudad Valles, SLP, México", "distance": 4129.0, "categories": "800-8000-0158" }, "geometry": { "type": "Point", "coordinates": [ -99.00836, 21.98598 ] } },
{ "type": "Feature", "properties": { "id": "here:pds:place:4849gct5-2ce2d3b76e7041e9bb5a8aa2788d2ffe", "title": "Dr. Rubén Navarro Torres", "label": "Dr. Rubén Navarro Torres, Benito Juárez 906, Obrera, 79050 Ciudad Valles, SLP, México", "distance": 4135.0, "categories": "800-8000-0000;800-8000-0155" }, "geometry": { "type": "Point", "coordinates": [ -99.00824, 21.98598 ] } },
{ "type": "Feature", "properties": { "id": "here:pds:place:4849gct4-db5a4ee6c9c44ac6cd27a99632ca21ae", "title": "Óptica + Vision", "label": "Óptica + Vision, Negrete 603, Hidalgo, 79080 Ciudad Valles, SLP, México", "distance": 4136.0, "categories": "800-8000-0161" }, "geometry": { "type": "Point", "coordinates": [ -99.01345, 21.98385 ] } },
{ "type": "Feature", "properties": { "id": "here:pds:place:4849gct4-ad57ae10af5a8ee361c27d2d44432d1d", "title": "Ópticas Lagos", "label": "Ópticas Lagos, Privada Francisco I. Madero, Hidalgo, 79080 Ciudad Valles, SLP, México", "distance": 4146.0, "categories": "800-8000-0161" }, "geometry": { "type": "Point", "coordinates": [ -99.01618, 21.98295 ] } },
{ "type": "Feature", "properties": { "id": "here:pds:place:4849gct4-dc014d7e5a0781ec2388d33adf53f6f6", "title": "Consultorio Dental Carlos Beltrán Oldaracena", "label": "Consultorio Dental Carlos Beltrán Oldaracena, Negrete, Hidalgo, 79080 Ciudad Valles, SLP, México", "distance": 4148.0, "categories": "800-8000-0154" }, "geometry": { "type": "Point", "coordinates": [ -99.01337, 21.98376 ] } },
{ "type": "Feature", "properties": { "id": "here:pds:place:4849gct4-1d072486824544edbf1760621f0f7137", "title": "Consultorio de Especialidades Dentales", "label": "Consultorio de Especialidades Dentales, Avenida Secundaria, Rotarios, 79080 Ciudad Valles, SLP, México", "distance": 4272.0, "categories": "800-8000-0154;800-8000-0000" }, "geometry": { "type": "Point", "coordinates": [ -99.01584, 21.98186 ] } },
{ "type": "Feature", "properties": { "id": "here:pds:place:4849gct4-a78cac6efee04ade9f763c517aeb18c6", "title": "La Nueva Santa María", "label": "La Nueva Santa María, Niños Héroes, Hidalgo, 79080 Ciudad Valles, SLP, México", "distance": 4291.0, "categories": "800-8000-0000;700-7400-0000" }, "geometry": { "type": "Point", "coordinates": [ -99.01225, 21.98277 ] } },
{ "type": "Feature", "properties": { "id": "here:pds:place:4849gct4-265bef5e49334638a8c55c314847f809", "title": "Unidad de Consulta y Hospital Nueva Santa María", "label": "Unidad de Consulta y Hospital Nueva Santa María, Niños Héroes 412, Hidalgo, 79080 Ciudad Valles, SLP, México", "distance": 4296.0, "categories": "800-8000-0158;700-7200-0272;700-7400-0000;800-8000-0155" }, "geometry": { "type": "Point", "coordinates": [ -99.01208, 21.98278 ] } },
{ "type": "Feature", "properties": { "id": "here:pds:place:4841r4ve-7ee3771b3e4d0fcf2e55fb8daa58d7cd", "title": "Laboratorios Aser", "label": "Laboratorios Aser, Niños Héroes 412, Hidalgo, 79080 Ciudad Valles, SLP, México", "distance": 4296.0, "categories": "800-8000-0158;700-7200-0272;800-8000-0000" }, "geometry": { "type": "Point", "coordinates": [ -99.01208, 21.98278 ] } },
{ "type": "Feature", "properties": { "id": "here:pds:place:4849gct4-0ebbcc59fa3c4f41a6f43b429caac212", "title": "Médica Dental", "label": "Médica Dental, Hermenegildo Galeana, Hidalgo, 79080 Ciudad Valles, SLP, México", "distance": 4305.0, "categories": "800-8000-0154;800-8000-0000" }, "geometry": { "type": "Point", "coordinates": [ -99.01351, 21.98222 ] } },
{ "type": "Feature", "properties": { "id": "here:pds:place:4849gct4-f67bb76310d41eba5ebb2dc9748bdd63", "title": "Dianalisis Laboratorio de Análisis Clinicos y Toxicologicos", "label": "Dianalisis Laboratorio de Análisis Clinicos y Toxicologicos, Niños Héroes 608, Rotarios, 79080 Ciudad Valles, SLP, México", "distance": 4402.0, "categories": "800-8000-0158" }, "geometry": { "type": "Point", "coordinates": [ -99.00931, 21.98282 ] } },
{ "type": "Feature", "properties": { "id": "here:pds:place:4849gct4-3deef47de2761babe3d80cf208272c91", "title": "Ópticos Excellent Vision", "label": "Ópticos Excellent Vision, Avenida Pujal, Rotarios, 79080 Ciudad Valles, SLP, México", "distance": 4413.0, "categories": "800-8000-0161" }, "geometry": { "type": "Point", "coordinates": [ -99.01386, 21.98109 ] } },
{ "type": "Feature", "properties": { "id": "here:pds:place:484jx7ps-8a5b16cd7e6c0db4948d33d3e2985abd", "title": "Ormadent", "label": "Ormadent, Rotarios 526, Rotarios, 79080 Ciudad Valles, SLP, México", "distance": 4488.0, "categories": "800-8000-0154;800-8000-0000" }, "geometry": { "type": "Point", "coordinates": [ -99.01152, 21.98113 ] } },
{ "type": "Feature", "properties": { "id": "here:pds:place:4849gct5-f37669974edd4c858e0c35e72809ced7", "title": "Clínica de Salud y Belleza Integral Bienstar", "label": "Clínica de Salud y Belleza Integral Bienstar, Monterrey 5, Tipzen, 79050 Ciudad Valles, SLP, México", "distance": 4680.0, "categories": "800-8000-0158;600-6950-0000;700-7400-0292" }, "geometry": { "type": "Point", "coordinates": [ -99.00367, 21.98274 ] } },
{ "type": "Feature", "properties": { "id": "here:pds:place:4849gct4-18805ece88b94609afe7ae855608f048", "title": "Dra. Ma. Esther Macias Herrera", "label": "Dra. Ma. Esther Macias Herrera, Juan Sarabia 610, Vergel, 79080 Ciudad Valles, SLP, México", "distance": 4702.0, "categories": "800-8000-0155;800-8000-0000;800-8000-0158" }, "geometry": { "type": "Point", "coordinates": [ -99.01063, 21.97939 ] } },
{ "type": "Feature", "properties": { "id": "here:pds:place:4849gct4-b464e2e5973bac333ebb5b4de831d1f8", "title": "Fraternidad Sendero de Luz", "label": "Fraternidad Sendero de Luz, Avenida Pujal, Vergel, 79080 Ciudad Valles, SLP, México", "distance": 4716.0, "categories": "800-8000-0158" }, "geometry": { "type": "Point", "coordinates": [ -99.01116, 21.97907 ] } },
{ "type": "Feature", "properties": { "id": "here:pds:place:4849gct5-18ba4c7606f341d6939c3715460b81ef", "title": "El Reino Veterinario", "label": "El Reino Veterinario, Boulevard México Laredo, Tipzen, 79050 Ciudad Valles, SLP, México", "distance": 4792.0, "categories": "800-8000-0162" }, "geometry": { "type": "Point", "coordinates": [ -99.00512, 21.98083 ] } },
{ "type": "Feature", "properties": { "id": "here:pds:place:4841r4ve-187d0688176c028e706e876928eb2ec0", "title": "Centro de Salud San Rafael", "label": "Centro de Salud San Rafael, Pánuco 314, Fracc Rosas del Tepeyac, 79068 Ciudad Valles, SLP, México", "distance": 4926.0, "categories": "800-8000-0000;800-8000-0158" }, "geometry": { "type": "Point", "coordinates": [ -98.99168, 21.98899 ] } },
{ "type": "Feature", "properties": { "id": "here:pds:place:4849gct5-aae55181e1a84dacb1426a700aa7fc9f", "title": "Mediscin Hospital", "label": "Mediscin Hospital, Fracc Lomas de San José, 79094 Ciudad Valles, SLP, México", "distance": 6089.0, "categories": "800-8000-0158" }, "geometry": { "type": "Point", "coordinates": [ -98.98908, 21.97686 ] } },
{ "type": "Feature", "properties": { "id": "here:pds:place:4849gcsg-8717c269f97eaf47de9cc2e70424c0c9", "title": "Comite de Area San Luis Potosí II de Alcoholicos Anonimos", "label": "Comite de Area San Luis Potosí II de Alcoholicos Anonimos, Padre Xavier 19, Fracc San Luis, 79097 Ciudad Valles, SLP, México", "distance": 6283.0, "categories": "800-8000-0158" }, "geometry": { "type": "Point", "coordinates": [ -98.99847, 21.96892 ] } },
{ "type": "Feature", "properties": { "id": "here:pds:place:4849gcsg-2d2454c144180c766290e771e8e1fdb1", "title": "Consultorio de Traumatología", "label": "Consultorio de Traumatología, Roberto Pérez Delgadillo 128, Fracc San Luis, 79097 Ciudad Valles, SLP, México", "distance": 6381.0, "categories": "800-8000-0158;800-8000-0154" }, "geometry": { "type": "Point", "coordinates": [ -98.9984, 21.96796 ] } },
{ "type": "Feature", "properties": { "id": "here:pds:place:4841r4ve-50b50a0bbaf70d84333ea609e6521392", "title": "Medica San Patricio", "label": "Medica San Patricio, Roberto Pérez Delgadillo 128, Fracc San Luis, 79097 Ciudad Valles, SLP, México", "distance": 6381.0, "categories": "800-8000-0158;800-8000-0000;800-8000-0154" }, "geometry": { "type": "Point", "coordinates": [ -98.9984, 21.96796 ] } },
{ "type": "Feature", "properties": { "id": "here:pds:place:4849gcsg-6972f6d331ef1026862a909f7e998237", "title": "Médico Tradicional Naturista", "label": "Médico Tradicional Naturista, Avenida de la Montaña, Fracc Real Campestre, 79092 Ciudad Valles, SLP, México", "distance": 7533.0, "categories": "800-8000-0158" }, "geometry": { "type": "Point", "coordinates": [ -98.9741, 21.9721 ] } },
{ "type": "Feature", "properties": { "id": "here:pds:place:4849gcsg-64738a94d3684a3384aa94c8d961b4f4", "title": "Consultorio de Medicina Estética Medspa", "label": "Consultorio de Medicina Estética Medspa, Francisco Patiño, Fracc Lomas de Santiago, 79095 Ciudad Valles, SLP, México", "distance": 7768.0, "categories": "800-8000-0158;600-6950-0000;700-7400-0292" }, "geometry": { "type": "Point", "coordinates": [ -98.99198, 21.957 ] } },
{ "type": "Feature", "properties": { "id": "here:pds:place:4849gcsg-b0327aaad5961bdd3244fd632dbff526", "title": "Hospital General de Cd. Valles", "label": "Hospital General de Cd. Valles, Carretera México-Laredo, Fracc El Gavilán, 79095 Ciudad Valles, SLP, México", "distance": 8502.0, "categories": "800-8000-0159" }, "geometry": { "type": "Point", "coordinates": [ -98.994, 21.94878 ] } },
{ "type": "Feature", "properties": { "id": "here:pds:place:4841r4ve-c16b77a667020b65da91508aab3cd8c7", "title": "Hospital General de Cd. Valles-UR", "label": "Hospital General de Cd. Valles-UR, Carretera México-Laredo, Fracc El Gavilán, 79095 Ciudad Valles, SLP, México", "distance": 8514.0, "categories": "800-8000-0325" }, "geometry": { "type": "Point", "coordinates": [ -98.99416, 21.9486 ] } },
{ "type": "Feature", "properties": { "id": "here:pds:place:4849gctp-3a1dd6501859d583086cabc231b35b85", "title": "Consultorio Ginecológico y Farmacia Azul una Luz de Dios", "label": "Consultorio Ginecológico y Farmacia Azul una Luz de Dios, Calle 10 de Mayo 70, Pueblo Nuevo, 79207 Tamuín, SLP, México", "distance": 24422.0, "categories": "800-8000-0158" }, "geometry": { "type": "Point", "coordinates": [ -98.79017, 22.01209 ] } },
{ "type": "Feature", "properties": { "id": "here:pds:place:4849gcv0-ab59cbe2592bda2d01903282c0500ffe", "title": "Hospital Básico Comunitario Tamuín", "label": "Hospital Básico Comunitario Tamuín, Pueblo Nuevo, 79207 Tamuín, SLP, México", "distance": 24535.0, "categories": "800-8000-0159" }, "geometry": { "type": "Point", "coordinates": [ -98.78901, 22.01424 ] } },
{ "type": "Feature", "properties": { "id": "here:pds:place:4849gcv0-1cfbb32de48e4d97b6aeb4ca140358ad", "title": "Hospital Básico Comunitario Tamuín-UR", "label": "Hospital Básico Comunitario Tamuín-UR, Pueblo Nuevo, 79207 Tamuín, SLP, México", "distance": 24552.0, "categories": "800-8000-0325" }, "geometry": { "type": "Point", "coordinates": [ -98.78884, 22.01426 ] } },
{ "type": "Feature", "properties": { "id": "here:pds:place:4849gcv0-19f6b8aec533fe8b82db2345b7f9e52a", "title": "Bill y Bob Alcoholicos Anonimos", "label": "Bill y Bob Alcoholicos Anonimos, Jarrilla, Hidalgo, 79205 Tamuín, SLP, México", "distance": 25412.0, "categories": "800-8000-0158" }, "geometry": { "type": "Point", "coordinates": [ -98.78101, 22.00353 ] } },
{ "type": "Feature", "properties": { "id": "here:pds:place:4849gcv0-1b93f342ea4d46dfe1b64e5999060ced", "title": "Centro de Salud Tamuin", "label": "Centro de Salud Tamuin, Calle Río Tempoal, Infonavit, 79206 Tamuín, SLP, México", "distance": 25472.0, "categories": "800-8000-0000" }, "geometry": { "type": "Point", "coordinates": [ -98.78013, 22.0083 ] } },
{ "type": "Feature", "properties": { "id": "here:pds:place:4849gcv0-cb2edda341b3826909389959108d9ba9", "title": "Consultorio Médico", "label": "Consultorio Médico, Calle Brulio M. Romero 8, Tamuín Centro, 79200 Tamuín, SLP, México", "distance": 26006.0, "categories": "800-8000-0000" }, "geometry": { "type": "Point", "coordinates": [ -98.77523, 22.00371 ] } },
{ "type": "Feature", "properties": { "id": "here:pds:place:4849gcv0-3379da1cb1844381b0bd3839c29b6171", "title": "Ortodoncia y Estética Dental", "label": "Ortodoncia y Estética Dental, Avenida General Pedro Antonio de los Santos, Tamuín Centro, 79200 Tamuín, SLP, México", "distance": 26018.0, "categories": "800-8000-0154" }, "geometry": { "type": "Point", "coordinates": [ -98.77513, 22.00346 ] } },
{ "type": "Feature", "properties": { "id": "here:pds:place:4849gckf-973dbeab708d1825ff93e3ac5c5fc3a0", "title": "IMSS Unidad Medicina Familiar con hospitalización 12 Tamasopo", "label": "IMSS Unidad Medicina Familiar con hospitalización 12 Tamasopo, Tamasopo, SLP, México", "distance": 38934.0, "categories": "800-8000-0158" }, "geometry": { "type": "Point", "coordinates": [ -99.3948, 21.93984 ] } },
{ "type": "Feature", "properties": { "id": "here:pds:place:4849gcej-76add310762849f9a9eba921fd236aaf", "title": "Centro de Salud de Tanlajas", "label": "Centro de Salud de Tanlajas, 20 de Noviembre, Tanlajás Centro, 79810 Tanlajás, SLP, México", "distance": 42053.0, "categories": "800-8000-0000" }, "geometry": { "type": "Point", "coordinates": [ -98.88623, 21.66395 ] } },
{ "type": "Feature", "properties": { "id": "here:pds:place:4849gce4-7f6180a0940ab1f143ce1cc0084fa856", "title": "Hospital Básico Comunitario Aquismón", "label": "Hospital Básico Comunitario Aquismón, El Choy, 79760 Aquismón, SLP, México", "distance": 43716.0, "categories": "800-8000-0159" }, "geometry": { "type": "Point", "coordinates": [ -99.01542, 21.62587 ] } },
{ "type": "Feature", "properties": { "id": "here:pds:place:4849gce4-e5b079b2c03b37670348d823003f281d", "title": "Hospital Básico Comunitario Aquismón-UR", "label": "Hospital Básico Comunitario Aquismón-UR, El Choy, 79760 Aquismón, SLP, México", "distance": 43736.0, "categories": "800-8000-0325" }, "geometry": { "type": "Point", "coordinates": [ -99.01555, 21.62569 ] } },
{ "type": "Feature", "properties": { "id": "here:pds:place:4841r4ve-5bdc0e7aa4ff0e49b231c51779e254f1", "title": "Dispensario Médico Parroquial", "label": "Dispensario Médico Parroquial, José María Villaseca, Villa Norte, 79760 Aquismón, SLP, México", "distance": 44123.0, "categories": "800-8000-0000" }, "geometry": { "type": "Point", "coordinates": [ -99.01914, 21.62213 ] } },
{ "type": "Feature", "properties": { "id": "here:pds:place:4849gcdv-9f12344101a6c3a0251140dce1a777b8", "title": "Unidad Basica de Rehabilitación", "label": "Unidad Basica de Rehabilitación, Coronel Gregorio Orta, San Antonio Centro, 79830 San Antonio, SLP, México", "distance": 46168.0, "categories": "800-8000-0158" }, "geometry": { "type": "Point", "coordinates": [ -98.9046, 21.61951 ] } },
{ "type": "Feature", "properties": { "id": "here:pds:place:4849gcdv-60e9f9a0e80b7fc9c38e64bba3a54afa", "title": "Consultorio Médico", "label": "Consultorio Médico, José Castillo, San Antonio Centro, 79830 San Antonio, SLP, México", "distance": 46206.0, "categories": "800-8000-0000" }, "geometry": { "type": "Point", "coordinates": [ -98.90233, 21.61976 ] } },
{ "type": "Feature", "properties": { "id": "here:pds:place:4849gcdg-1d455d2f8d669505141e566e5ba8705c", "title": "Consultorio Dental", "label": "Consultorio Dental, Privada Francisco I. Madero, Barrio Chacana, 79800 Tancanhuitz de Santos, SLP, México", "distance": 46901.0, "categories": "800-8000-0154" }, "geometry": { "type": "Point", "coordinates": [ -98.96719, 21.60075 ] } },
{ "type": "Feature", "properties": { "id": "here:pds:place:4849gcdg-f0cc09832987ada87c2c824d1affca82", "title": "Consultorio Médico Similar", "label": "Consultorio Médico Similar, Miguel Hidalgo, Barrio Las Pozas, 79800 Tancanhuitz de Santos, SLP, México", "distance": 47396.0, "categories": "800-8000-0000" }, "geometry": { "type": "Point", "coordinates": [ -98.96677, 21.59631 ] } },
{ "type": "Feature", "properties": { "id": "here:pds:place:4849gcvt-388083c504f75978961943cca015ab81", "title": "9 Distrito", "label": "9 Distrito, Calle Soto y Gama, Avecinados, 79204 Nuevo Tampaón, SLP, México", "distance": 47677.0, "categories": "800-8000-0158" }, "geometry": { "type": "Point", "coordinates": [ -98.56715, 22.06576 ] } },
{ "type": "Feature", "properties": { "id": "here:pds:place:4849gcdt-9d632055bd76048004bd61d04639023f", "title": "Unidadad Medica Rural Umr 155", "label": "Unidadad Medica Rural Umr 155, Camino a Panuhuaya, Barrio Tlahuelompa, 79860 Coxcatlán, SLP, México", "distance": 54513.0, "categories": "800-8000-0000" }, "geometry": { "type": "Point", "coordinates": [ -98.9163, 21.53951 ] } },
{ "type": "Feature", "properties": { "id": "here:pds:place:4849gcdt-3b95960a048b40c9870b8a73202bc969", "title": "Consultorio Médico", "label": "Consultorio Médico, Benito Juárez, Coxcatlán Centro, 79860 Coxcatlán, SLP, México", "distance": 54549.0, "categories": "800-8000-0000" }, "geometry": { "type": "Point", "coordinates": [ -98.90559, 21.54142 ] } },
{ "type": "Feature", "properties": { "id": "here:pds:place:4849gcdx-5456c037a367eee621648ce36d72b65e", "title": "Clínica Dental", "label": "Clínica Dental, Doctor Nicasio Sánchez, Magisterial, 79850 Tampamolón Corona, SLP, México", "distance": 55610.0, "categories": "800-8000-0154" }, "geometry": { "type": "Point", "coordinates": [ -98.81666, 21.55846 ] } },
{ "type": "Feature", "properties": { "id": "here:pds:place:4849gcgs-9646f66bb60a016fa2b98b62383bdeb0", "title": "Consultorio Dental Dr Miguel Angel Salinas Ochoa", "label": "Consultorio Dental Dr Miguel Angel Salinas Ochoa, Josefa Ortiz de Domínguez, San Vicente Tancuayalab Centro, 79820 San Vicente Tancuayalab, SLP, México", "distance": 56657.0, "categories": "800-8000-0154" }, "geometry": { "type": "Point", "coordinates": [ -98.58671, 21.71443 ] } },
{ "type": "Feature", "properties": { "id": "here:pds:place:4849u183-ad5c5c201e0a1b018dc5b1a706aa59ad", "title": "Umf 34 Clínica del Imss", "label": "Umf 34 Clínica del Imss, Vicente Guerrero, Antiguo Morelos Centro, 89960 Antiguo Morelos, Tamps, México", "distance": 59802.0, "categories": "800-8000-0000" }, "geometry": { "type": "Point", "coordinates": [ -99.08603, 22.5539 ] } },
{ "type": "Feature", "properties": { "id": "here:pds:place:4849gcjh-1e4bdcb6481a41ed995f9a6a56123f88", "title": "Veterinaria Río Verde", "label": "Veterinaria Río Verde, Calle Pedro Antonio de los Santos 42, Cárdenas Centro, 79380 Cárdenas, SLP, México", "distance": 63261.0, "categories": "800-8000-0162;600-6400-0069;700-7200-0272" }, "geometry": { "type": "Point", "coordinates": [ -99.64018, 21.99796 ] } },
{ "type": "Feature", "properties": { "id": "here:pds:place:4849gcjh-496957eec49ad3e3f79f3f8ac90036ff", "title": "Alcoholicos Anonimos Renaciminto Aa", "label": "Alcoholicos Anonimos Renaciminto Aa, Calle Ignacio López Rayón 36, Barrio Guadalupe, 79384 Cárdenas, SLP, México", "distance": 63269.0, "categories": "800-8000-0158" }, "geometry": { "type": "Point", "coordinates": [ -99.64018, 21.99609 ] } },
{ "type": "Feature", "properties": { "id": "here:pds:place:4849gcjh-ca6cb3bbdf57ac4216885b6f928417e3", "title": "Geraldine Servicios Ópticos", "label": "Geraldine Servicios Ópticos, Calle Luis Gómez Zepeda, Conjunto Hab Ferrocarrilera, 79382 Cárdenas, SLP, México", "distance": 63384.0, "categories": "800-8000-0161" }, "geometry": { "type": "Point", "coordinates": [ -99.6414, 21.99864 ] } },
{ "type": "Feature", "properties": { "id": "here:pds:place:4841r4ve-219a115eabf5027f77620a02eb883b05", "title": "Optivision Ópticas", "label": "Optivision Ópticas, Calle Miguel Hidalgo 6, Conjunto Hab Ferrocarrilera, 79382 Cárdenas, SLP, México", "distance": 63390.0, "categories": "800-8000-0161;600-6800-0093" }, "geometry": { "type": "Point", "coordinates": [ -99.64142, 21.99768 ] } },
{ "type": "Feature", "properties": { "id": "here:pds:place:4849u125-b13ee04a57e82272e16825ff2096c000", "title": "IMSS Hospital General de Subzona Medicina Familiar 4", "label": "IMSS Hospital General de Subzona Medicina Familiar 4, Avenida Miguel Hidalgo, La Encantada, 79305 El Naranjo, SLP, México", "distance": 63866.0, "categories": "800-8000-0158" }, "geometry": { "type": "Point", "coordinates": [ -99.3207, 22.52484 ] } }
]
}
