{
"type": "FeatureCollection",
"name": "Restaurantes_CV",
"crs": { "type": "name", "properties": { "name": "urn:ogc:def:crs:OGC:1.3:CRS84" } },
"features": [
{ "type": "Feature", "properties": { "id": "here:pds:place:4849gct6-df6ac0d389c5b3506896ba6e31902096", "title": "Tacos Rue", "label": "Tacos Rue, Manuel José Othón, Los Silleros, 79010 Ciudad Valles, SLP, México", "distance": 304.0, "categories": "100-1000-0004" }, "geometry": { "type": "Point", "coordinates": [ -99.02974, 22.01795 ] } },
{ "type": "Feature", "properties": { "id": "here:pds:place:4849gct4-76dca3e9d9266432a1a3faec5827385b", "title": "Pollos Asados El Don", "label": "Pollos Asados El Don, Adolfo López Mateos, Los Silleros, 79010 Ciudad Valles, SLP, México", "distance": 346.0, "categories": "100-1000-0003" }, "geometry": { "type": "Point", "coordinates": [ -99.02791, 22.01589 ] } },
{ "type": "Feature", "properties": { "id": "here:pds:place:4849gct4-91102ae829d6408f887e766ab9799cf7", "title": "Pollos Asados Kevin", "label": "Pollos Asados Kevin, Adolfo López Mateos 414, La Cruz, 79010 Ciudad Valles, SLP, México", "distance": 450.0, "categories": "100-1000-0003" }, "geometry": { "type": "Point", "coordinates": [ -99.02805, 22.01495 ] } },
{ "type": "Feature", "properties": { "id": "here:pds:place:4849gct4-6964c109259e4cb39e148b8d21a6e8b9", "title": "Mariscos El Camarón", "label": "Mariscos El Camarón, Adolfo López Mateos 706, La Cruz, 79010 Ciudad Valles, SLP, México", "distance": 459.0, "categories": "100-1000-0000;600-6900-0000" }, "geometry": { "type": "Point", "coordinates": [ -99.02784, 22.01482 ] } },
{ "type": "Feature", "properties": { "id": "here:pds:place:4849gct6-62d3226179274bc7001c56e1591d6418", "title": "Tacos Ayala", "label": "Tacos Ayala, Plutarco Elías Calles, Los Silleros, 79010 Ciudad Valles, SLP, México", "distance": 734.0, "categories": "100-1000-0004" }, "geometry": { "type": "Point", "coordinates": [ -99.02605, 22.02542 ] } },
{ "type": "Feature", "properties": { "id": "here:pds:place:484jx7ps-5194f18c8cf5068d3ed872d4c41e116c", "title": "Elaboración de Comida", "label": "Elaboración de Comida, Plutón, Fracc del Sol, 79023 Ciudad Valles, SLP, México", "distance": 753.0, "categories": "100-1000-0003" }, "geometry": { "type": "Point", "coordinates": [ -99.02572, 22.02554 ] } },
{ "type": "Feature", "properties": { "id": "here:pds:place:4849gct4-a3666e826cd34290bb10bdcc75971ce3", "title": "Mr Burrito", "label": "Mr Burrito, Adolfo López Mateos 309, La Cruz, 79010 Ciudad Valles, SLP, México", "distance": 764.0, "categories": "100-1000-0000;100-1000-0009;600-6900-0099" }, "geometry": { "type": "Point", "coordinates": [ -99.02839, 22.01213 ] } },
{ "type": "Feature", "properties": { "id": "here:pds:place:4849gct4-13ae9a2870a47004f33db755c9fad6be", "title": "El Mariskito", "label": "El Mariskito, Adolfo López Mateos 309, La Cruz, 79010 Ciudad Valles, SLP, México", "distance": 764.0, "categories": "100-1000-0009;100-1000-0000;100-1000-0002" }, "geometry": { "type": "Point", "coordinates": [ -99.02839, 22.01213 ] } },
{ "type": "Feature", "properties": { "id": "here:pds:place:484jx7ps-4dd6ed779704047ffa4c247a1b68c4bc", "title": "Tacos Álex", "label": "Tacos Álex, Vía Láctea, Fracc del Sol, 79023 Ciudad Valles, SLP, México", "distance": 811.0, "categories": "100-1000-0005;100-1000-0000;100-1000-0004" }, "geometry": { "type": "Point", "coordinates": [ -99.02409, 22.02566 ] } },
{ "type": "Feature", "properties": { "id": "here:pds:place:4849gct6-5cb4ed19d379f115faa74b7d85ec743c", "title": "Elaboración y Venta de Tamales", "label": "Elaboración y Venta de Tamales, Italia 1012, La Crucita, 79254 Ciudad Valles, SLP, México", "distance": 832.0, "categories": "100-1000-0000" }, "geometry": { "type": "Point", "coordinates": [ -99.01893, 22.01809 ] } },
{ "type": "Feature", "properties": { "id": "here:pds:place:4849gct4-f7e7b6a1c429d9304cfa295ea69c94b2", "title": "Loncheria Ponchito", "label": "Loncheria Ponchito, José María Morelos, La Cruz, 79010 Ciudad Valles, SLP, México", "distance": 896.0, "categories": "100-1000-0001" }, "geometry": { "type": "Point", "coordinates": [ -99.02594, 22.01087 ] } },
{ "type": "Feature", "properties": { "id": "here:pds:place:4849gct6-7a529584be8fcae84b4e31d78e9687ff", "title": "Antojitos La Bonita", "label": "Antojitos La Bonita, 16 de Septiembre, Barrio Subida Centro, 79019 Ciudad Valles, SLP, México", "distance": 907.0, "categories": "100-1000-0001" }, "geometry": { "type": "Point", "coordinates": [ -99.03542, 22.0211 ] } },
{ "type": "Feature", "properties": { "id": "here:pds:place:4849gct6-282342abb95ba965747785a4cf9eddda", "title": "Antojitos Doña Tinga", "label": "Antojitos Doña Tinga, Graciano Sánchez, Los Silleros, 79010 Ciudad Valles, SLP, México", "distance": 907.0, "categories": "100-1000-0001;100-1000-0000" }, "geometry": { "type": "Point", "coordinates": [ -99.03517, 22.02181 ] } },
{ "type": "Feature", "properties": { "id": "here:pds:place:4849gct6-933cd6697a7df140208077603ba9a774", "title": "Fonda", "label": "Fonda, 16 de Septiembre, Barrio Subida Centro, 79019 Ciudad Valles, SLP, México", "distance": 912.0, "categories": "100-1000-0000" }, "geometry": { "type": "Point", "coordinates": [ -99.03543, 22.02125 ] } },
{ "type": "Feature", "properties": { "id": "here:pds:place:484jx7ps-4456a161ed320f3078ebc7962eb71de8", "title": "Gorditas", "label": "Gorditas, Rep de Chile, Fracc Emiliano Zapata, 79020 Ciudad Valles, SLP, México", "distance": 942.0, "categories": "100-1000-0004;100-1000-0001" }, "geometry": { "type": "Point", "coordinates": [ -99.02356, 22.01101 ] } },
{ "type": "Feature", "properties": { "id": "here:pds:place:484jx7ps-1d662d7334ba0814835431b8ad63d55a", "title": "Elaboración de Comida", "label": "Elaboración de Comida, Brasil, La Crucita, 79254 Ciudad Valles, SLP, México", "distance": 960.0, "categories": "100-1000-0003" }, "geometry": { "type": "Point", "coordinates": [ -99.01819, 22.01597 ] } },
{ "type": "Feature", "properties": { "id": "here:pds:place:4849gct6-aeb4b1ba42c19fbcfcffb49e6d7c1881", "title": "Tacos Regis", "label": "Tacos Regis, Adriana 113, El Consuelo, 79010 Ciudad Valles, SLP, México", "distance": 982.0, "categories": "100-1000-0004" }, "geometry": { "type": "Point", "coordinates": [ -99.02648, 22.02769 ] } },
{ "type": "Feature", "properties": { "id": "here:pds:place:4849gct4-88e8dfd1148cd19405244cae143da11a", "title": "Venta de Tacos Álex", "label": "Venta de Tacos Álex, Avenida Emiliano Zapata 1106, La Cruz, 79010 Ciudad Valles, SLP, México", "distance": 1004.0, "categories": "100-1000-0004" }, "geometry": { "type": "Point", "coordinates": [ -99.02467, 22.01009 ] } },
{ "type": "Feature", "properties": { "id": "here:pds:place:4849gct4-6ee8a164d1fc0d658afed9223bcf19f0", "title": "Refresquería", "label": "Refresquería, Belice, Fracc Emiliano Zapata, 79020 Ciudad Valles, SLP, México", "distance": 1081.0, "categories": "100-1000-0007;100-1000-0005" }, "geometry": { "type": "Point", "coordinates": [ -99.02219, 22.01021 ] } },
{ "type": "Feature", "properties": { "id": "here:pds:place:4849gct4-5d4656ecad472384c1d80ea0eae31656", "title": "Venta de Carnitas", "label": "Venta de Carnitas, Nicaragua 707, Fracc Emiliano Zapata, 79020 Ciudad Valles, SLP, México", "distance": 1082.0, "categories": "100-1000-0001" }, "geometry": { "type": "Point", "coordinates": [ -99.02106, 22.01082 ] } },
{ "type": "Feature", "properties": { "id": "here:pds:place:4849gct6-b8cda222cc76afea533566de5bad44b9", "title": "Venta de Taquitos", "label": "Venta de Taquitos, Consuelo 406, El Consuelo, 79010 Ciudad Valles, SLP, México", "distance": 1088.0, "categories": "100-1000-0004" }, "geometry": { "type": "Point", "coordinates": [ -99.02516, 22.02851 ] } },
{ "type": "Feature", "properties": { "id": "here:pds:place:4849gct4-8231627a82086389fdb3bf132d7fcf37", "title": "Cooperativa Escolar del Cobach Num. 06 de Ciudad Valles, s.L.P.", "label": "Cooperativa Escolar del Cobach Num. 06 de Ciudad Valles, s.L.P., Avenida Emiliano Zapata 210, Fracc Emiliano Zapata, 79020 Ciudad Valles, SLP, México", "distance": 1118.0, "categories": "100-1000-0007" }, "geometry": { "type": "Point", "coordinates": [ -99.02299, 22.00951 ] } },
{ "type": "Feature", "properties": { "id": "here:pds:place:4849gct4-396f529d8fb082c6d7558a571d23c1fe", "title": "Preparación de Comida para Llevar", "label": "Preparación de Comida para Llevar, Zitácuaro 316, Morelos y Pavón, 79010 Ciudad Valles, SLP, México", "distance": 1158.0, "categories": "100-1000-0000" }, "geometry": { "type": "Point", "coordinates": [ -99.03089, 22.00911 ] } },
{ "type": "Feature", "properties": { "id": "here:pds:place:4849gct4-9cccd44830b0776cfbbb7132a764b8d4", "title": "Antojitos Lupita", "label": "Antojitos Lupita, Avenida Emiliano Zapata, Fracc Emiliano Zapata, 79020 Ciudad Valles, SLP, México", "distance": 1170.0, "categories": "100-1000-0001" }, "geometry": { "type": "Point", "coordinates": [ -99.02215, 22.00934 ] } },
{ "type": "Feature", "properties": { "id": "here:pds:place:4849gct4-341febb5553670d91207c3a30b12083f", "title": "Cooperativa Esc.Sec.General N.3 Tierra y Libertad", "label": "Cooperativa Esc.Sec.General N.3 Tierra y Libertad, Avenida Emiliano Zapata, Doraceli, 79020 Ciudad Valles, SLP, México", "distance": 1181.0, "categories": "100-1000-0007" }, "geometry": { "type": "Point", "coordinates": [ -99.02241, 22.00912 ] } },
{ "type": "Feature", "properties": { "id": "here:pds:place:484jx7ps-f53b97e682d305bd522cb296e3df9314", "title": "Elaboración de Comida", "label": "Elaboración de Comida, Olga, El Consuelo, 79010 Ciudad Valles, SLP, México", "distance": 1214.0, "categories": "100-1000-0003" }, "geometry": { "type": "Point", "coordinates": [ -99.02706, 22.02979 ] } },
{ "type": "Feature", "properties": { "id": "here:pds:place:4849gct4-02d8e9cd323d23b421fdd019979fd63f", "title": "Antojitos Lety", "label": "Antojitos Lety, Avenida Emiliano Zapata, Doraceli, 79020 Ciudad Valles, SLP, México", "distance": 1215.0, "categories": "100-1000-0001" }, "geometry": { "type": "Point", "coordinates": [ -99.02203, 22.00895 ] } },
{ "type": "Feature", "properties": { "id": "here:pds:place:4849gct4-e0ac5d56d2ab15e76f06d8f305b93c30", "title": "Servicio de Preparación de Tamales", "label": "Servicio de Preparación de Tamales, Guatemala 898, Fracc Emiliano Zapata, 79020 Ciudad Valles, SLP, México", "distance": 1443.0, "categories": "100-1000-0009;100-1000-0000" }, "geometry": { "type": "Point", "coordinates": [ -99.01842, 22.00859 ] } },
{ "type": "Feature", "properties": { "id": "here:pds:place:4849gct4-f37dd7df402e303d4ddfa8f7fa382bf5", "title": "Comedor Lucy", "label": "Comedor Lucy, Lateral Carretera al Ingenieroenio 1300, FC, 79030 Ciudad Valles, SLP, México", "distance": 1460.0, "categories": "100-1000-0001" }, "geometry": { "type": "Point", "coordinates": [ -99.0335, 22.00722 ] } },
{ "type": "Feature", "properties": { "id": "here:pds:place:4849gct4-2fba8245210b83a3413d057adabce2d8", "title": "Productos de Limpieza Genesis", "label": "Productos de Limpieza Genesis, Avenida Emiliano Zapata 307, Fracc Emiliano Zapata, 79020 Ciudad Valles, SLP, México", "distance": 1486.0, "categories": "100-1000-0004" }, "geometry": { "type": "Point", "coordinates": [ -99.01899, 22.00773 ] } },
{ "type": "Feature", "properties": { "id": "here:pds:place:4849gct4-f45da286ca8e7fd994515feb231c82d5", "title": "Carnitas Víctor", "label": "Carnitas Víctor, Rosales, Doraceli, 79020 Ciudad Valles, SLP, México", "distance": 1508.0, "categories": "100-1000-0000;100-1000-0001" }, "geometry": { "type": "Point", "coordinates": [ -99.0198, 22.00704 ] } },
{ "type": "Feature", "properties": { "id": "here:pds:place:4849gct4-1d0f4ce85ecac0db29bdb0f4e93f4456", "title": "Venta de Gorditas", "label": "Venta de Gorditas, Lateral Carretera al Ingenieroenio, FC, 79030 Ciudad Valles, SLP, México", "distance": 1553.0, "categories": "100-1000-0001" }, "geometry": { "type": "Point", "coordinates": [ -99.03124, 22.00548 ] } },
{ "type": "Feature", "properties": { "id": "here:pds:place:4849gct4-b23644bb4d9a4fd6942b8e30f286e712", "title": "Pollos Asados Los Unicos", "label": "Pollos Asados Los Unicos, Adolfo López Mateos, Francisco Villa, 79010 Ciudad Valles, SLP, México", "distance": 1577.0, "categories": "100-1000-0000;100-1000-0003" }, "geometry": { "type": "Point", "coordinates": [ -99.02996, 22.00496 ] } },
{ "type": "Feature", "properties": { "id": "here:pds:place:4849gct4-e30d6b6508e0f6208e398883a6528ddc", "title": "La Cocina de Martita", "label": "La Cocina de Martita, Lateral Carretera al Ingenieroenio, Unidad Hab Santa Lucía, 79019 Ciudad Valles, SLP, México", "distance": 1588.0, "categories": "100-1000-0003" }, "geometry": { "type": "Point", "coordinates": [ -99.03829, 22.0092 ] } },
{ "type": "Feature", "properties": { "id": "here:pds:place:484jx7ps-db93accf5b98004ca66390a479c1e07c", "title": "Almejita", "label": "Almejita, Lateral Carretera al Ingenieroenio 1827, Unidad Hab Santa Lucía, 79019 Ciudad Valles, SLP, México", "distance": 1607.0, "categories": "100-1000-0000;100-1000-0002" }, "geometry": { "type": "Point", "coordinates": [ -99.03869, 22.00935 ] } },
{ "type": "Feature", "properties": { "id": "here:pds:place:4849gct4-cc0f85855ccb4ba78211e83bcf0b5a78", "title": "Tacos El Muñeco", "label": "Tacos El Muñeco, Lateral Carretera al Ingenieroenio, Santa María, 79010 Ciudad Valles, SLP, México", "distance": 1631.0, "categories": "100-1000-0000;100-1000-0004" }, "geometry": { "type": "Point", "coordinates": [ -99.02927, 22.00436 ] } },
{ "type": "Feature", "properties": { "id": "here:pds:place:4849gct4-0807b14ddeecb7bd1f3291ccb4c161ec", "title": "Elaboración de Zacahuil", "label": "Elaboración de Zacahuil, Privada Nueva España, Márquez, 79010 Ciudad Valles, SLP, México", "distance": 1719.0, "categories": "100-1000-0001;100-1000-0000" }, "geometry": { "type": "Point", "coordinates": [ -99.02698, 22.00341 ] } },
{ "type": "Feature", "properties": { "id": "here:pds:place:4849gct4-7cd725fd77aae1d55cd715996e4fb7ab", "title": "Elaboración de Comida", "label": "Elaboración de Comida, Andador Insurgentes, Unid Hab Ing Ignacio García Téllez, 79019 Ciudad Valles, SLP, México", "distance": 1721.0, "categories": "100-1000-0003" }, "geometry": { "type": "Point", "coordinates": [ -99.04321, 22.01532 ] } },
{ "type": "Feature", "properties": { "id": "here:pds:place:4849gct4-0db8886cc4981be4c6796cc838c2b368", "title": "Comedor Magi", "label": "Comedor Magi, Lateral Carretera al Ingenieroenio 16, Florida, 79034 Ciudad Valles, SLP, México", "distance": 1748.0, "categories": "100-1000-0000;100-1000-0003" }, "geometry": { "type": "Point", "coordinates": [ -99.04092, 22.00995 ] } },
{ "type": "Feature", "properties": { "id": "here:pds:place:4849gct4-ad2f2dad91d54088ac0dda90ac763dec", "title": "Cenaduria San Pedro Tlaquepaque", "label": "Cenaduria San Pedro Tlaquepaque, Clavel 35, 18 de Marzo, 79020 Ciudad Valles, SLP, México", "distance": 1793.0, "categories": "100-1000-0001;100-1000-0000" }, "geometry": { "type": "Point", "coordinates": [ -99.01577, 22.00653 ] } },
{ "type": "Feature", "properties": { "id": "here:pds:place:4849gct4-3b7a74a0168bedb154481650998aaf30", "title": "Antojotos Doña Tina", "label": "Antojotos Doña Tina, Avenida México 60, Doraceli, 79020 Ciudad Valles, SLP, México", "distance": 1857.0, "categories": "100-1000-0001" }, "geometry": { "type": "Point", "coordinates": [ -99.01921, 22.00379 ] } },
{ "type": "Feature", "properties": { "id": "here:pds:place:484jx7ps-f1200edaf0e8056137b5096661e28c16", "title": "Elaboración de Comida", "label": "Elaboración de Comida, Unid Hab Ing Ignacio García Téllez, 79019 Ciudad Valles, SLP, México", "distance": 1861.0, "categories": "100-1000-0003;100-1000-0004" }, "geometry": { "type": "Point", "coordinates": [ -99.04322, 22.01159 ] } },
{ "type": "Feature", "properties": { "id": "here:pds:place:484jx7ps-90dca05b4ab308f79d9de427f5dabec1", "title": "Gorditas", "label": "Gorditas, Las Rosas, 18 de Marzo, 79020 Ciudad Valles, SLP, México", "distance": 1897.0, "categories": "100-1000-0004;100-1000-0001" }, "geometry": { "type": "Point", "coordinates": [ -99.01407, 22.00669 ] } },
{ "type": "Feature", "properties": { "id": "here:pds:place:4849gct4-3f989ae0dd46f6801d07da540f5a723e", "title": "Preparación de Barbacoa", "label": "Preparación de Barbacoa, Genovevo Rivas Guillén, Doraceli, 79020 Ciudad Valles, SLP, México", "distance": 1929.0, "categories": "100-1000-0001" }, "geometry": { "type": "Point", "coordinates": [ -99.01621, 22.00467 ] } },
{ "type": "Feature", "properties": { "id": "here:pds:place:484jx7ps-6ace1044dd1f08927b06e79eea163897", "title": "Comedor Los Globos", "label": "Comedor Los Globos, Lateral Carretera al Ingenieroenio 36, Unid Hab Ing Ignacio García Téllez, 79019 Ciudad Valles, SLP, México", "distance": 1972.0, "categories": "100-1000-0000;100-1000-0001;100-1000-0009" }, "geometry": { "type": "Point", "coordinates": [ -99.04423, 22.01125 ] } },
{ "type": "Feature", "properties": { "id": "here:pds:place:4849gct4-11e7aad56f5cfb096fd114df23b68e21", "title": "Venta de Tacos", "label": "Venta de Tacos, Camino a Chantol, Antiguas Casas del Ingenio, 79030 Ciudad Valles, SLP, México", "distance": 1982.0, "categories": "100-1000-0004" }, "geometry": { "type": "Point", "coordinates": [ -99.04438, 22.01132 ] } },
{ "type": "Feature", "properties": { "id": "here:pds:place:4849gct4-8af74b54c79dbae085ad05fcd0712e91", "title": "Venta de Almuerzos", "label": "Venta de Almuerzos, Roble, 18 de Marzo, 79020 Ciudad Valles, SLP, México", "distance": 1988.0, "categories": "100-1000-0001" }, "geometry": { "type": "Point", "coordinates": [ -99.01293, 22.00661 ] } },
{ "type": "Feature", "properties": { "id": "here:pds:place:4849gct4-29dcf60ee8bf2b74d5abb28a6a10a875", "title": "Taquería Casa Belen", "label": "Taquería Casa Belen, Sabino, Guadalupe, 79020 Ciudad Valles, SLP, México", "distance": 2007.0, "categories": "100-1000-0004" }, "geometry": { "type": "Point", "coordinates": [ -99.02235, 22.00133 ] } },
{ "type": "Feature", "properties": { "id": "here:pds:place:484jx7ps-08a69a6ae17607fda4e4328f1780725a", "title": "Restaurante El 7 Mares", "label": "Restaurante El 7 Mares, Adolfo López Mateos, Fracc del Campo, 79033 Ciudad Valles, SLP, México", "distance": 2033.0, "categories": "100-1000-0000;100-1000-0002;600-6900-0000" }, "geometry": { "type": "Point", "coordinates": [ -99.02453, 22.00073 ] } },
{ "type": "Feature", "properties": { "id": "here:pds:place:4849gct4-3be5b8e956014408ba8a717bc0b7c489", "title": "Mariscos Nava", "label": "Mariscos Nava, Avenida México 44, Doraceli, 79020 Ciudad Valles, SLP, México", "distance": 2046.0, "categories": "100-1000-0000;100-1000-0002" }, "geometry": { "type": "Point", "coordinates": [ -99.01899, 22.00202 ] } },
{ "type": "Feature", "properties": { "id": "here:pds:place:4849gct4-5a5a4d7b89717f2afa90966de0fcdd73", "title": "Restaurante Lucy", "label": "Restaurante Lucy, De Las Rosas 12, 18 de Marzo, 79020 Ciudad Valles, SLP, México", "distance": 2068.0, "categories": "100-1000-0000" }, "geometry": { "type": "Point", "coordinates": [ -99.01267, 22.00582 ] } },
{ "type": "Feature", "properties": { "id": "here:pds:place:484jx7ps-7312da56ddf20731ad3ad0d8f0e1b462", "title": "Tortillería", "label": "Tortillería, Seguridad Social, Infonavit II, 79020 Ciudad Valles, SLP, México", "distance": 2069.0, "categories": "100-1000-0005" }, "geometry": { "type": "Point", "coordinates": [ -99.00764, 22.01384 ] } },
{ "type": "Feature", "properties": { "id": "here:pds:place:484jx7ps-0fc2bd96c87e04cd704dd136c0339a18", "title": "Elaboración de Comida", "label": "Elaboración de Comida, Andador Base Sindical, Infonavit II, 79020 Ciudad Valles, SLP, México", "distance": 2092.0, "categories": "100-1000-0003" }, "geometry": { "type": "Point", "coordinates": [ -99.00709, 22.01505 ] } },
{ "type": "Feature", "properties": { "id": "here:pds:place:4849gct5-84f8776a96536cef4e06d890431c3c23", "title": "Taquitos Rojos", "label": "Taquitos Rojos, Río Blanco, Infonavit II, 79020 Ciudad Valles, SLP, México", "distance": 2096.0, "categories": "100-1000-0001" }, "geometry": { "type": "Point", "coordinates": [ -99.00755, 22.01326 ] } },
{ "type": "Feature", "properties": { "id": "here:pds:place:4849gct4-fb1c34bd9eb1a946a6f941ed9f52a5eb", "title": "Preparación de Tamales", "label": "Preparación de Tamales, Jacarandas, 18 de Marzo, 79020 Ciudad Valles, SLP, México", "distance": 2113.0, "categories": "100-1000-0000" }, "geometry": { "type": "Point", "coordinates": [ -99.01124, 22.00668 ] } },
{ "type": "Feature", "properties": { "id": "here:pds:place:4849gct4-1274e0518dd2e5b17be4ddab527b58d4", "title": "Comedor Rosita", "label": "Comedor Rosita, Sasafras, 18 de Marzo, 79020 Ciudad Valles, SLP, México", "distance": 2170.0, "categories": "100-1000-0001" }, "geometry": { "type": "Point", "coordinates": [ -99.01147, 22.00565 ] } },
{ "type": "Feature", "properties": { "id": "here:pds:place:4849gct4-0f472f68c6d323cde777cd464cdbb0ab", "title": "Taquería", "label": "Taquería, Chijol 319, Palo de Rosa, 79034 Ciudad Valles, SLP, México", "distance": 2186.0, "categories": "100-1000-0004" }, "geometry": { "type": "Point", "coordinates": [ -99.03594, 22.00106 ] } },
{ "type": "Feature", "properties": { "id": "here:pds:place:484jx7ps-8becc61781b805e6751b2d73a95e6e26", "title": "Antojitos México", "label": "Antojitos México, Avenida México 26, Doraceli, 79020 Ciudad Valles, SLP, México", "distance": 2196.0, "categories": "100-1000-0000;100-1000-0001;600-6300-0244" }, "geometry": { "type": "Point", "coordinates": [ -99.01881, 22.00062 ] } },
{ "type": "Feature", "properties": { "id": "here:pds:place:4849gct4-540f35a6c99e2fdde161a97e84ece162", "title": "Vivienda con Preparación de Tamales", "label": "Vivienda con Preparación de Tamales, Loma Bonita, 79020 Ciudad Valles, SLP, México", "distance": 2216.0, "categories": "100-1000-0000" }, "geometry": { "type": "Point", "coordinates": [ -99.02377, 21.99916 ] } },
{ "type": "Feature", "properties": { "id": "here:pds:place:4849gct4-2f9b937a4ad5423491406e8549c8432d", "title": "Cafesso", "label": "Cafesso, Avenida México 25, Loma Bonita, 79020 Ciudad Valles, SLP, México", "distance": 2221.0, "categories": "100-1000-0001;100-1000-0000" }, "geometry": { "type": "Point", "coordinates": [ -99.01892, 22.00034 ] } },
{ "type": "Feature", "properties": { "id": "here:pds:place:4849gct4-6831c2594905f60dc2017b28437c5432", "title": "Antojitos Cecy", "label": "Antojitos Cecy, Mozambique 224, Valle Alto, 79020 Ciudad Valles, SLP, México", "distance": 2288.0, "categories": "100-1000-0001" }, "geometry": { "type": "Point", "coordinates": [ -99.01042, 22.00515 ] } },
{ "type": "Feature", "properties": { "id": "here:pds:place:484jx7ps-8134bdcb461802486406b4dad45e8b6a", "title": "Tacos Layo's", "label": "Tacos Layo's, Avenida de las Flores 213, Monte Alegre, 79020 Ciudad Valles, SLP, México", "distance": 2292.0, "categories": "100-1000-0005;100-1000-0000;100-1000-0004" }, "geometry": { "type": "Point", "coordinates": [ -99.01457, 22.00175 ] } },
{ "type": "Feature", "properties": { "id": "here:pds:place:4849gct4-277372ea9f3a4a538ac11c156f7f20f9", "title": "El Metate Taquería & Grill", "label": "El Metate Taquería & Grill, Avenida Ferrocarril, Doraceli, 79020 Ciudad Valles, SLP, México", "distance": 2342.0, "categories": "100-1000-0000;100-1000-0001;100-1000-0004" }, "geometry": { "type": "Point", "coordinates": [ -99.01862, 21.99928 ] } },
{ "type": "Feature", "properties": { "id": "here:pds:place:4849gct4-185501257e6e4fe999de4d7bc4f47d5e", "title": "Rincón Huasteco", "label": "Rincón Huasteco, Boulevard Lázaro Cárdenas 309, Loma Bonita, 79020 Ciudad Valles, SLP, México", "distance": 2346.0, "categories": "100-1000-0009;100-1000-0000;500-5000-0000;500-5000-0053;500-5100-0000" }, "geometry": { "type": "Point", "coordinates": [ -99.02241, 21.9982 ] } },
{ "type": "Feature", "properties": { "id": "here:pds:place:4849gct4-6f8a1ee0f97847bda8ccb80825e1fdca", "title": "Tacos Martínez en Ciudad Valles SLP", "label": "Tacos Martínez en Ciudad Valles SLP, Toltecas 1505, Francisco I Madero, 79040 Ciudad Valles, SLP, México", "distance": 2476.0, "categories": "100-1000-0000" }, "geometry": { "type": "Point", "coordinates": [ -99.01855, 21.99801 ] } },
{ "type": "Feature", "properties": { "id": "here:pds:place:4849gct4-7ae3ca9636fb701794aa3a9bc6e045a6", "title": "Taquería", "label": "Taquería, Las Flores, Valle Alto, 79020 Ciudad Valles, SLP, México", "distance": 2493.0, "categories": "100-1000-0004" }, "geometry": { "type": "Point", "coordinates": [ -99.01326, 22.00039 ] } },
{ "type": "Feature", "properties": { "id": "here:pds:place:4849gct4-dd2b5934d3bec23ef023f58abb892834", "title": "Antojitos Amy", "label": "Antojitos Amy, Boulevard Lázaro Cárdenas 714, Francisco I Madero, 79040 Ciudad Valles, SLP, México", "distance": 2503.0, "categories": "100-1000-0001" }, "geometry": { "type": "Point", "coordinates": [ -99.01694, 21.99837 ] } },
{ "type": "Feature", "properties": { "id": "here:pds:place:484jx7ps-44cedd229d4d0bef7a5c5a87f2d00ab8", "title": "Los Caporales", "label": "Los Caporales, Boulevard Lázaro Cárdenas 213, Cuauhtémoc, 79040 Ciudad Valles, SLP, México", "distance": 2505.0, "categories": "100-1000-0001;100-1000-0000;200-2000-0011;600-6300-0363" }, "geometry": { "type": "Point", "coordinates": [ -99.02621, 21.99635 ] } },
{ "type": "Feature", "properties": { "id": "here:pds:place:4849gct4-e43f5073dda241f69504d5afcb49d08d", "title": "Loncheria Las Mojarras", "label": "Loncheria Las Mojarras, Boulevard Lázaro Cárdenas, Cuauhtémoc, 79040 Ciudad Valles, SLP, México", "distance": 2521.0, "categories": "100-1000-0003;100-1000-0000;100-1000-0002" }, "geometry": { "type": "Point", "coordinates": [ -99.0265, 21.9962 ] } },
{ "type": "Feature", "properties": { "id": "here:pds:place:4849gct4-c485d9b933ddfeacead91213882db7b4", "title": "Taquería Tacos Mañaneros", "label": "Taquería Tacos Mañaneros, Boulevard Lázaro Cárdenas, Cuauhtémoc, 79040 Ciudad Valles, SLP, México", "distance": 2591.0, "categories": "100-1000-0004" }, "geometry": { "type": "Point", "coordinates": [ -99.02699, 21.99557 ] } },
{ "type": "Feature", "properties": { "id": "here:pds:place:4849gct4-5472b9d294044e6aa99bad6538d8ac90", "title": "Venta de Tamales", "label": "Venta de Tamales, Privada Hilda 15, Francisco I Madero, 79040 Ciudad Valles, SLP, México", "distance": 2633.0, "categories": "100-1000-0000;100-1000-0009" }, "geometry": { "type": "Point", "coordinates": [ -99.0187, 21.99646 ] } },
{ "type": "Feature", "properties": { "id": "here:pds:place:4849gct4-a8d1bc625d10cdb3031c4c89793b3ad0", "title": "Frutiraspas", "label": "Frutiraspas, Privada Francisco I. Madero, Francisco I Madero, 79040 Ciudad Valles, SLP, México", "distance": 2658.0, "categories": "100-1000-0000" }, "geometry": { "type": "Point", "coordinates": [ -99.01381, 21.99831 ] } },
{ "type": "Feature", "properties": { "id": "here:pds:place:484jx7ps-5c02b225685b0a0a30193224f4c3292d", "title": "Mrs Pizza", "label": "Mrs Pizza, Privada Francisco I. Madero, Moctezuma, 79040 Ciudad Valles, SLP, México", "distance": 2667.0, "categories": "100-1000-0001" }, "geometry": { "type": "Point", "coordinates": [ -99.01369, 21.99828 ] } },
{ "type": "Feature", "properties": { "id": "here:pds:place:4849gct4-c1455a9b11d0ea5fc4e4e9850494f2f4", "title": "Elaboración de Zacahuil", "label": "Elaboración de Zacahuil, Boulevard Lázaro Cárdenas 116, Moctezuma, 79040 Ciudad Valles, SLP, México", "distance": 2679.0, "categories": "100-1000-0001" }, "geometry": { "type": "Point", "coordinates": [ -99.01272, 21.99872 ] } },
{ "type": "Feature", "properties": { "id": "here:pds:place:48486003-039a0f329d61ee71a5adffdfb876f20e", "title": "Meave", "label": "Meave, Vicente C. Salazar 901, Cuauhtémoc, 79040 Ciudad Valles, SLP, México", "distance": 2688.0, "categories": "100-1000-0001;100-1000-0000" }, "geometry": { "type": "Point", "coordinates": [ -99.02697, 21.9947 ] } },
{ "type": "Feature", "properties": { "id": "here:pds:place:484jx7ps-e56ced727f450075b04a2eb617bc66a7", "title": "Venta de Gorditas Doña Bocha", "label": "Venta de Gorditas Doña Bocha, Vicente Guerrero 214, Francisco I Madero, 79040 Ciudad Valles, SLP, México", "distance": 2696.0, "categories": "100-1000-0000;100-1000-0001" }, "geometry": { "type": "Point", "coordinates": [ -99.01562, 21.99702 ] } },
{ "type": "Feature", "properties": { "id": "here:pds:place:4849gct4-71905e5b4893cf989b32c92bd7d3d0dd", "title": "La Princesa Cooperativa", "label": "La Princesa Cooperativa, Aztecas 804, Avance, 79040 Ciudad Valles, SLP, México", "distance": 2717.0, "categories": "100-1000-0007" }, "geometry": { "type": "Point", "coordinates": [ -99.02063, 21.99515 ] } },
{ "type": "Feature", "properties": { "id": "here:pds:place:484jx7ps-555e7b111f090298af1056df39581080", "title": "Tacorriendo", "label": "Tacorriendo, Vicente C. Salazar 210, Cuauhtémoc, 79040 Ciudad Valles, SLP, México", "distance": 2720.0, "categories": "100-1000-0005;100-1000-0000;100-1000-0004" }, "geometry": { "type": "Point", "coordinates": [ -99.02625, 21.99442 ] } },
{ "type": "Feature", "properties": { "id": "here:pds:place:4849gct4-34bee1320091afa532c7444456660c22", "title": "Los Zacahuileros", "label": "Los Zacahuileros, Boulevard Lázaro Cárdenas, Moctezuma, 79040 Ciudad Valles, SLP, México", "distance": 2734.0, "categories": "100-1000-0001" }, "geometry": { "type": "Point", "coordinates": [ -99.0121, 21.99851 ] } },
{ "type": "Feature", "properties": { "id": "here:pds:place:484httek-2d06c6d25ddd0fc6124b973b498e1dc9", "title": "Mariscos La Playa", "label": "Mariscos La Playa, Vicente C. Salazar 354, Cuauhtémoc, 79040 Ciudad Valles, SLP, México", "distance": 2754.0, "categories": "100-1000-0001;100-1000-0000;100-1000-0002" }, "geometry": { "type": "Point", "coordinates": [ -99.02415, 21.99424 ] } },
{ "type": "Feature", "properties": { "id": "here:pds:place:4849gct4-450339cfaff95bcb1e09deb73255cb43", "title": "Antojitos Emily", "label": "Antojitos Emily, Aztecas 103, Avance, 79040 Ciudad Valles, SLP, México", "distance": 2759.0, "categories": "100-1000-0001;100-1000-0000" }, "geometry": { "type": "Point", "coordinates": [ -99.02057, 21.99478 ] } },
{ "type": "Feature", "properties": { "id": "here:pds:place:484jx7ps-1a60fdb69b1401da7e3c9e4309b5da3c", "title": "Los Takos", "label": "Los Takos, Vicente C. Salazar, Cuauhtémoc, 79040 Ciudad Valles, SLP, México", "distance": 2775.0, "categories": "100-1000-0005;100-1000-0000;100-1000-0004" }, "geometry": { "type": "Point", "coordinates": [ -99.02331, 21.99414 ] } },
{ "type": "Feature", "properties": { "id": "here:pds:place:4849gct4-879e9a9d995e1a706389ec266bf64306", "title": "Super Porky", "label": "Super Porky, Aztecas, Avance, 79040 Ciudad Valles, SLP, México", "distance": 2801.0, "categories": "100-1000-0001" }, "geometry": { "type": "Point", "coordinates": [ -99.02058, 21.99438 ] } },
{ "type": "Feature", "properties": { "id": "here:pds:place:4849gct5-d991826c96804d59bfc3ce52098a2fdf", "title": "Tacos Los Pedraza", "label": "Tacos Los Pedraza, Boulevard México Laredo, Granjas Buenos Aires, 79020 Ciudad Valles, SLP, México", "distance": 2802.0, "categories": "100-1000-0000;100-1000-0004" }, "geometry": { "type": "Point", "coordinates": [ -99.00111, 22.01108 ] } },
{ "type": "Feature", "properties": { "id": "here:pds:place:4849gct4-5d89a56db4a111d7b0fd19469461abb0", "title": "Club de Herbalife Avance", "label": "Club de Herbalife Avance, Aztecas 1200, Avance, 79040 Ciudad Valles, SLP, México", "distance": 2823.0, "categories": "100-1000-0000" }, "geometry": { "type": "Point", "coordinates": [ -99.02061, 21.99417 ] } },
{ "type": "Feature", "properties": { "id": "here:pds:place:484jx7ps-5e400758d78a0246c5bdff9cf502bbc4", "title": "Carnitas Castillo", "label": "Carnitas Castillo, Vicente C. Salazar 23, Cuauhtémoc, 79040 Ciudad Valles, SLP, México", "distance": 2825.0, "categories": "100-1000-0000;100-1000-0001" }, "geometry": { "type": "Point", "coordinates": [ -99.02199, 21.99389 ] } },
{ "type": "Feature", "properties": { "id": "here:pds:place:484httek-eceb2b77a8290b2292c5ba855574eaff", "title": "Caramel Snacks&Coffee", "label": "Caramel Snacks&Coffee, Avenida Pedro Antonio de los Santos 61B, Cuauhtémoc, 79040 Ciudad Valles, SLP, México", "distance": 2849.0, "categories": "100-1000-0007;100-1000-0000;100-1000-0009;100-1100-0000;100-1100-0010;700-7400-0285" }, "geometry": { "type": "Point", "coordinates": [ -99.02342, 21.99346 ] } },
{ "type": "Feature", "properties": { "id": "here:pds:place:4849gct4-6bcb2aa658ea44939220b6b7dafd1ab6", "title": "La Lonja", "label": "La Lonja, Avenida Pedro Antonio de los Santos 80A, Cuauhtémoc, 79040 Ciudad Valles, SLP, México", "distance": 2857.0, "categories": "100-1000-0000;100-1000-0001;100-1100-0010;600-6300-0066" }, "geometry": { "type": "Point", "coordinates": [ -99.02359, 21.99337 ] } },
{ "type": "Feature", "properties": { "id": "here:pds:place:484jx7ps-68b6ef8233fb06f103c87c2c2b214884", "title": "Doña Chelo", "label": "Doña Chelo, Venezuela, Cuauhtémoc, 79040 Ciudad Valles, SLP, México", "distance": 2861.0, "categories": "100-1000-0005;100-1000-0000;100-1000-0001" }, "geometry": { "type": "Point", "coordinates": [ -99.02742, 21.99314 ] } },
{ "type": "Feature", "properties": { "id": "here:pds:place:4849gct4-38700ddec20ebb033121948310ab1df1", "title": "Antojitos Kuquis", "label": "Antojitos Kuquis, Privada Lluvia, Cuauhtémoc, 79040 Ciudad Valles, SLP, México", "distance": 2868.0, "categories": "100-1000-0001" }, "geometry": { "type": "Point", "coordinates": [ -99.02252, 21.99341 ] } },
{ "type": "Feature", "properties": { "id": "here:pds:place:4849gct4-12fdf9cd3051abd88230e658c97f2b53", "title": "Taquería El Retiro", "label": "Taquería El Retiro, Avenida Pedro Antonio de los Santos, Cuauhtémoc, 79040 Ciudad Valles, SLP, México", "distance": 2879.0, "categories": "100-1000-0004" }, "geometry": { "type": "Point", "coordinates": [ -99.02339, 21.99319 ] } },
{ "type": "Feature", "properties": { "id": "here:pds:place:484jx7ps-9f6aa011a7980d2a6c72fa308588ff6b", "title": "Pollos a la Leña La Diligencia", "label": "Pollos a la Leña La Diligencia, Avenida Pedro Antonio de los Santos 533, Cuauhtémoc, 79040 Ciudad Valles, SLP, México", "distance": 2887.0, "categories": "100-1000-0003;100-1000-0000;700-7200-0253" }, "geometry": { "type": "Point", "coordinates": [ -99.02322, 21.99314 ] } },
{ "type": "Feature", "properties": { "id": "here:pds:place:4849gct4-cd500fe8636c4d29bf095dac60a43582", "title": "Church's Chicken México", "label": "Church's Chicken México, Boulevard México Laredo, Fracc Norte Residencial, 79058 Ciudad Valles, SLP, México", "distance": 2934.0, "categories": "100-1000-0009" }, "geometry": { "type": "Point", "coordinates": [ -99.01053, 21.99733 ] } },
{ "type": "Feature", "properties": { "id": "here:pds:place:484httek-7295319f6a8406f123b73b22b74c2336", "title": "Pizza Hut", "label": "Pizza Hut, Avenida Pedro Antonio de los Santos 304, Cuauhtémoc, 79040 Ciudad Valles, SLP, México", "distance": 2937.0, "categories": "100-1000-0001;100-1000-0003" }, "geometry": { "type": "Point", "coordinates": [ -99.02276, 21.99275 ] } },
{ "type": "Feature", "properties": { "id": "here:pds:place:4849gct4-2dccd10eb6055b9a805e8964a68299f4", "title": "Restaurante Bar Barriosfood Box", "label": "Restaurante Bar Barriosfood Box, Río Valles, Fracc Norte Residencial, 79058 Ciudad Valles, SLP, México", "distance": 2937.0, "categories": "100-1000-0000" }, "geometry": { "type": "Point", "coordinates": [ -99.00942, 21.99806 ] } },
{ "type": "Feature", "properties": { "id": "here:pds:place:484jx7ps-79117c42e4800ea2b9178deabb30f93a", "title": "El Quijote", "label": "El Quijote, Boulevard México Laredo, Fracc Norte Residencial, 79058 Ciudad Valles, SLP, México", "distance": 2946.0, "categories": "100-1000-0001;100-1000-0000;100-1000-0009;200-2000-0019" }, "geometry": { "type": "Point", "coordinates": [ -99.01059, 21.99715 ] } },
{ "type": "Feature", "properties": { "id": "here:pds:place:4849gct4-9a635b1681384f829fbadfd75413ecd2", "title": "Antojitos Toñita", "label": "Antojitos Toñita, Boulevard México Laredo, Fracc Norte Residencial, 79058 Ciudad Valles, SLP, México", "distance": 2955.0, "categories": "100-1000-0000;100-1000-0001;100-1100-0010" }, "geometry": { "type": "Point", "coordinates": [ -99.01067, 21.997 ] } },
{ "type": "Feature", "properties": { "id": "here:pds:place:484jx7ps-65d275a8648702e6645b6057484ba9c2", "title": "Tacos Vane", "label": "Tacos Vane, Río Sena, Praderas del Río, 79030 Ciudad Valles, SLP, México", "distance": 2993.0, "categories": "100-1000-0005" }, "geometry": { "type": "Point", "coordinates": [ -99.0544, 22.01008 ] } },
{ "type": "Feature", "properties": { "id": "here:pds:place:484jx7ps-d186b3476964001bc4876bfb8174e689", "title": "Puro Pollo", "label": "Puro Pollo, Reforma 438, Las Lomas, 79043 Ciudad Valles, SLP, México", "distance": 3012.0, "categories": "100-1000-0001;100-1000-0000;100-1000-0003;100-1000-0009" }, "geometry": { "type": "Point", "coordinates": [ -99.01915, 21.99277 ] } },
{ "type": "Feature", "properties": { "id": "here:pds:place:4849gct4-5a9dc41d05cb4ac3aa5d84a43cc84536", "title": "Cenaduría Las Torres", "label": "Cenaduría Las Torres, Reforma, Las Lomas, 79043 Ciudad Valles, SLP, México", "distance": 3023.0, "categories": "100-1000-0000;100-1000-0001;100-1000-0009" }, "geometry": { "type": "Point", "coordinates": [ -99.0186, 21.99281 ] } }
]
}
